,Lat,Long,City,Country,Date,Max Temperature,Humidity,Cloudiness,Wind Speed
0,-34.26131246744813,-0.5841214384884097,luderitz,na,1601703820.0,13.54,74.0,0.0,2.14
1,4.030845646221707,-19.262935120707994,goderich,sl,1601703820.0,8.33,69.0,95.0,0.45
3,77.51546725848803,173.19030702211955,pevek,ru,1601703821.0,0.49,87.0,96.0,1.32
4,14.609635565901115,15.299000755072598,mao,td,1601703821.0,16.0,55.0,20.0,3.6
5,4.124654273775576,138.96942758662942,airai,pw,1601703822.0,25.83,43.0,55.0,2.44
6,80.34698935843753,41.55178894850323,ostrovnoy,ru,1601703822.0,5.99,64.0,98.0,2.86
7,71.83797604345267,-110.72234232853023,yellowknife,ca,1601703823.0,5.0,100.0,75.0,3.1
8,-13.766252611033494,116.51269871182768,praya,id,1601703823.0,26.0,78.0,38.0,11.3
9,70.69220362700523,156.01664209056702,srednekolymsk,ru,1601703824.0,1.04,84.0,100.0,2.17
10,33.65360186757232,147.93410703580037,hasaki,jp,1601703824.0,26.11,64.0,75.0,2.6
11,-46.653357803689154,-99.24340449454158,castro,cl,1601703607.0,21.3,40.0,20.0,1.71
12,-45.356206531242684,161.86205336462615,te anau,nz,1601703825.0,10.46,89.0,100.0,3.86
13,-28.46192205102639,145.21651917280735,roma,au,1601703723.0,9.44,93.0,90.0,0.51
14,30.007429214924457,25.049148872999695,bardiyah,ly,1601703826.0,24.66,52.0,0.0,5.13
15,-28.383046605084203,34.62687375057024,richards bay,za,1601703827.0,17.34,89.0,95.0,3.39
16,-33.039337008326285,-154.3640311386123,mataura,pf,1601703827.0,15.56,68.0,98.0,4.92
17,77.02218067851692,-81.03050157630811,qaanaaq,gl,1601703828.0,-6.57,82.0,31.0,2.75
18,54.515079707426764,-173.25836796123625,provideniya,ru,1601703828.0,5.4,87.0,96.0,5.02
19,16.76991340418104,-64.3743913592179,oranjestad,an,1601703806.0,28.75,79.0,98.0,10.0
20,-65.92242779430184,-109.19745499005094,punta arenas,cl,1601703743.0,4.0,64.0,90.0,9.8
22,-80.88802933999233,34.54566071530044,port elizabeth,za,1601703680.0,16.0,87.0,90.0,8.2
23,-69.56470665585721,146.75541862107798,hobart,au,1601703830.0,17.0,77.0,90.0,4.6
24,43.60953841498815,136.97599409292798,kamenka,ru,1601703830.0,14.03,42.0,99.0,4.68
25,67.29760482321518,15.048324091255097,loding,no,1601703831.0,12.0,62.0,1.0,9.8
26,59.863054000589955,-113.59109069349356,hay river,ca,1601703831.0,7.22,82.0,71.0,3.52
27,74.98465316136375,20.567146025177948,skjervoy,no,1601703831.0,9.9,77.0,16.0,5.49
29,-70.58570625920738,119.31743806775364,albany,au,1601703604.0,8.33,83.0,0.0,1.77
31,42.55160164792889,64.08846990269427,gazli,uz,1601703832.0,22.03,20.0,0.0,1.9
32,-43.17357795277602,169.32986156503733,wanaka,nz,1601703833.0,11.74,69.0,100.0,4.99
33,86.74765917625814,-45.57128682770252,upernavik,gl,1601703833.0,0.67,86.0,99.0,1.18
34,16.841458819800025,-22.598227573977056,santa maria,cv,1601703834.0,13.62,80.0,99.0,6.85
35,-79.75725202024674,47.013480683584106,port alfred,za,1601703834.0,15.46,84.0,100.0,9.69
36,-24.92089914197139,45.79782901346766,ambovombe,mg,1601703835.0,22.59,64.0,44.0,6.58
37,44.72930780615829,-103.12843524867802,sturgis,us,1601703835.0,3.89,93.0,1.0,0.85
38,43.27522536456431,5.373595675866028,marseille,fr,1601703836.0,9.0,93.0,79.0,2.6
39,-33.061462897533765,-64.29258847638523,rio cuarto,ar,1601703836.0,6.89,78.0,31.0,4.89
41,-71.9469142469539,-21.850491247552014,mar del plata,ar,1601703623.0,7.0,56.0,40.0,5.1
42,-20.743086980610016,114.6056209808558,karratha,au,1601703837.0,32.32,25.0,0.0,9.73
43,-8.348043193128007,-51.22068249473111,sao felix do xingu,br,1601703838.0,23.54,63.0,45.0,0.65
44,-3.0251939045537455,71.23625008663359,hithadhoo,mv,1601703839.0,28.73,73.0,77.0,4.8
45,54.39064192311298,-0.5662987298449309,scarborough,gb,1601703539.0,13.33,95.0,100.0,0.89
46,30.235519996232583,103.30598903436561,linqiong,cn,1601703839.0,25.0,56.0,100.0,4.0
47,-25.384216508708704,-167.7663366413854,alofi,nu,1601703840.0,26.0,88.0,20.0,5.1
48,-76.89174310573974,87.12055872481949,busselton,au,1601703841.0,17.22,35.0,56.0,5.38
50,56.12721881012416,-7.059443279560099,bowmore,gb,1601703841.0,13.33,76.0,1.0,2.6
51,22.301274299981557,72.98018716141735,padra,in,1601703842.0,31.0,62.0,2.0,1.94
52,-65.24064366034182,161.32352291699465,bluff,nz,1601703842.0,15.56,68.0,98.0,4.92
53,-84.49619734992068,-167.83443925323778,vaini,to,1601703843.0,22.0,94.0,90.0,4.6
55,41.61500291777401,-107.21915095381063,rawlins,us,1601703844.0,8.33,49.0,1.0,3.1
56,57.6540891590451,-51.72981136311165,paamiut,gl,1601703845.0,2.6,86.0,100.0,2.28
57,-36.94664732219266,61.1652864391379,saint-philippe,re,1601703845.0,26.0,69.0,29.0,4.6
58,50.72586757389095,-102.13422953171991,esterhazy,ca,1601703846.0,3.2,90.0,73.0,1.57
59,-36.08822888492626,-115.97219728616261,rikitea,pf,1601703846.0,22.82,79.0,5.0,7.36
60,69.20496373368027,150.20699812872175,chokurdakh,ru,1601703847.0,-0.44,86.0,0.0,4.54
61,-14.164378452869329,-137.6362114369501,atuona,pf,1601703848.0,25.76,78.0,17.0,9.36
62,58.41161159721153,-128.36737675450598,smithers,ca,1601703848.0,10.0,93.0,1.0,1.0
63,11.298651529028817,-70.7849665024901,punta cardon,ve,1601703849.0,28.37,76.0,100.0,7.4
67,43.49904007957255,-82.57047726520976,port huron,us,1601703850.0,7.78,93.0,90.0,1.5
68,21.05846820946968,46.6168807905438,riyadh,sa,1601703783.0,26.0,24.0,0.0,2.6
69,79.25049424294843,-165.65775441168333,barrow,us,1601703703.0,2.0,96.0,90.0,8.7
70,22.45202470124488,-31.35059871061935,ponta do sol,cv,1601703851.0,21.0,77.0,75.0,3.6
72,83.36520981025498,159.50637835954325,cherskiy,ru,1601703852.0,0.7,86.0,91.0,2.58
74,-16.727745836831602,125.46707140623198,kununurra,au,1601703852.0,37.0,32.0,96.0,4.1
76,-32.93284680072122,13.953076538674452,saldanha,za,1601703853.0,8.0,87.0,0.0,3.1
78,61.87077114343802,-31.890383902828972,tasiilaq,gl,1601703854.0,1.0,80.0,100.0,2.6
79,43.75316943070334,-18.711051171813267,vila franca do campo,pt,1601703854.0,20.0,88.0,75.0,6.7
80,5.300723856136187,-151.4917518969773,hilo,us,1601703829.0,26.0,78.0,90.0,2.1
81,22.791108527088923,-170.45181106579236,kapaa,us,1601703855.0,28.0,74.0,40.0,2.1
82,-12.810854213081356,-25.626613691613812,sao jose da coroa grande,br,1601703856.0,23.79,82.0,49.0,4.37
83,45.96206754699256,113.82959074193104,baruun-urt,mn,1601703856.0,3.1,69.0,14.0,7.42
85,68.68585353724768,-4.133394494778656,klaksvik,fo,1601703856.0,10.0,93.0,98.0,9.3
86,40.16359997224174,75.96381326193969,kashi,cn,1601703857.0,17.0,29.0,40.0,1.0
87,77.04925903152488,27.86634109066793,mehamn,no,1601703857.0,8.35,86.0,74.0,6.5
89,-0.7083074746352196,-91.74501982509292,puerto ayora,ec,1601703858.0,19.44,88.0,69.0,2.68
91,25.269090698075757,140.73347959788197,shimoda,jp,1601703859.0,24.0,64.0,75.0,3.6
92,34.05752658630398,81.99448150050267,joshimath,in,1601703859.0,23.29,20.0,0.0,3.4
94,57.853373495552745,85.79959944680968,pervomayskoye,ru,1601703860.0,19.0,58.0,100.0,3.7
96,-62.77882683513658,-62.17079512493946,ushuaia,ar,1601703692.0,3.0,59.0,75.0,3.68
97,65.22445481167657,72.58402581149736,nadym,ru,1601703861.0,3.19,73.0,99.0,12.51
99,47.88386238561719,-108.8197065749883,lewistown,us,1601703862.0,8.0,75.0,1.0,1.2
101,-77.12665147918341,4.346040325946802,hermanus,za,1601703862.0,13.89,92.0,99.0,1.79
102,60.503642868087326,133.35955322952373,ust-maya,ru,1601703863.0,5.06,62.0,51.0,3.32
103,13.211245857638446,13.592960876151267,diffa,ne,1601703863.0,28.6,59.0,37.0,4.82
104,44.5442076674658,-45.9175623463932,torbay,ca,1601703864.0,19.44,100.0,90.0,7.2
105,3.451468524502701,-74.8913534237775,colombia,co,1601703865.0,24.0,94.0,100.0,2.6
106,-36.63287443113787,-23.98863428663256,arraial do cabo,br,1601703865.0,23.35,87.0,0.0,7.59
108,-32.44355254864455,10.062234704117031,oranjemund,na,1601703866.0,13.71,78.0,0.0,1.48
109,47.49064859390364,160.33701269978843,severo-kurilsk,ru,1601703866.0,9.26,72.0,5.0,6.43
110,-48.26644879919444,173.5670526228899,dunedin,nz,1601703867.0,16.05,57.0,95.0,3.49
111,-50.29696963021434,179.25875760829985,christchurch,nz,1601703819.0,23.0,28.0,99.0,6.2
113,-15.87391641646461,-55.62250514540679,chapada dos guimaraes,br,1601703868.0,27.0,57.0,3.0,3.6
115,-39.83464221001074,176.51258174614333,otane,nz,1601703868.0,14.44,63.0,0.0,4.02
116,-31.237328912955917,68.32280565488043,mahebourg,mu,1601703869.0,25.0,61.0,20.0,1.5
117,3.04386067687922,141.68278506584102,vanimo,pg,1601703870.0,29.41,65.0,4.0,3.59
121,59.56673454079069,-150.2011548614644,sterling,us,1601703870.0,10.0,71.0,1.0,2.1
125,71.11727087115005,116.01653758333384,saskylakh,ru,1601703871.0,-2.05,95.0,74.0,6.59
126,56.63441264842834,-163.52617625687054,bethel,us,1601703871.0,8.33,93.0,1.0,1.65
127,55.27046628206742,37.382643069879634,stolbovaya,ru,1601703872.0,13.89,81.0,97.0,3.0
130,73.90887501496863,-66.33800704066871,clyde river,ca,1601703872.0,-2.0,79.0,90.0,1.0
133,7.1986122436011755,-2.686726602426603,berekum,gh,1601703873.0,21.64,96.0,80.0,1.2
135,39.79551612353569,139.32640540979463,oga,jp,1601703873.0,17.78,87.0,75.0,2.6
136,32.162255526772796,-70.74646022349488,hamilton,bm,1601703752.0,11.11,87.0,90.0,0.92
137,-62.448421846327086,-4.903410077243194,cape town,za,1601703699.0,16.11,82.0,20.0,2.6
138,-36.00526533154426,-56.86154995612756,dolores,ar,1601703875.0,1.27,90.0,0.0,2.75
139,41.002368844958966,-23.93955976056057,rabo de peixe,pt,1601703875.0,20.0,88.0,75.0,6.7
140,45.16831461020348,179.59022251640528,nikolskoye,ru,1601703876.0,9.44,93.0,85.0,3.0
142,16.853950091402083,-76.45341801609968,morant bay,jm,1601703876.0,28.0,78.0,40.0,7.2
144,-26.715299701107085,137.757636341335,alice springs,au,1601703712.0,36.0,11.0,10.0,8.2
146,69.28313004591459,110.5898923291548,udachnyy,ru,1601703877.0,0.0,90.0,90.0,4.0
147,49.30193362808993,7.755291194782302,kaiserslautern,de,1601703878.0,12.78,100.0,90.0,3.6
151,-30.738616743561373,91.57830264819586,carnarvon,au,1601703878.0,21.0,37.0,0.0,13.4
157,56.483395767916534,49.84582396836629,mari-turek,ru,1601703879.0,12.58,75.0,49.0,3.27
158,-48.60907261446602,-36.0242548717128,chuy,uy,1601703879.0,10.06,73.0,38.0,5.36
159,24.950359515021802,102.25147308659268,lianran,cn,1601703850.0,24.44,69.0,40.0,7.0
160,45.75552656134687,-103.21108530973953,dickinson,us,1601703781.0,20.56,67.0,1.0,3.21
161,14.436885000331102,84.10052019029689,yanam,in,1601703880.0,31.0,70.0,75.0,5.1
163,65.14741117447417,132.89605226151474,verkhoyansk,ru,1601703881.0,2.62,67.0,99.0,10.48
164,22.183719444873475,-22.45837379244861,nouadhibou,mr,1601703881.0,20.0,82.0,0.0,9.8
165,-50.63824064364402,124.93933801630044,esperance,au,1601703882.0,12.0,93.0,40.0,4.6
166,25.944154631585462,107.1349905895712,xiaoweizhai,cn,1601703883.0,27.58,67.0,78.0,3.25
170,-40.106827726500754,-48.765804386270446,rocha,uy,1601703883.0,6.22,74.0,80.0,3.92
171,-48.569695556927776,21.762248232136727,bredasdorp,za,1601703704.0,14.0,93.0,100.0,5.1
173,57.4594900659784,-42.516511178950964,nanortalik,gl,1601703884.0,3.18,92.0,100.0,5.36
176,43.184436182858576,-66.38339193052823,yarmouth,ca,1601703820.0,12.22,100.0,1.0,3.15
179,48.95986864890324,-126.74601222431352,ucluelet,ca,1601703716.0,13.89,91.0,7.0,0.43
182,83.15254675775316,19.170854042480556,longyearbyen,sj,1601703885.0,0.0,92.0,75.0,1.0
183,-9.727599275893638,139.37894488085539,merauke,id,1601703886.0,28.11,73.0,78.0,9.33
184,42.75324927188487,133.13759374066768,vrangel,ru,1601703886.0,16.16,57.0,0.0,6.64
185,5.23543744257762,45.4491015368537,xuddur,so,1601703887.0,27.47,48.0,42.0,6.33
188,-5.790201086741334,-156.60719907955595,faanui,pf,1601703887.0,25.96,78.0,7.0,8.81
189,71.06212100612353,172.95937454322103,komsomolskiy,ru,1601703888.0,19.0,32.0,45.0,1.0
191,-16.29194714572806,87.2374975434521,bengkulu,id,1601703889.0,28.53,68.0,100.0,2.9
193,-24.349592580216623,-68.25202286889802,calama,cl,1601703597.0,13.4,35.0,27.0,1.95
198,-35.062913481577304,-159.77198965706404,avarua,ck,1601703890.0,24.0,78.0,98.0,1.0
201,-49.41980757200592,-68.1321740474444,rio gallegos,ar,1601703891.0,1.0,64.0,37.0,3.6
202,-18.931489736370693,20.36581703097761,rundu,na,1601703891.0,24.72,17.0,33.0,3.31
204,-70.25975933085581,51.478899164546306,east london,za,1601703669.0,14.0,100.0,90.0,6.7
205,-63.53249712666876,129.2190105705523,new norfolk,au,1601703870.0,16.11,78.0,97.0,0.45
206,-15.478913934665812,38.34505317678051,nampula,mz,1601703893.0,23.0,83.0,20.0,2.1
207,35.637975905277955,-37.040834400495015,ribeira grande,pt,1601703894.0,20.34,80.0,96.0,8.3
211,74.50286575261953,176.31566428095846,leningradskiy,ru,1601703894.0,0.18,95.0,100.0,4.84
212,14.598166789137352,-117.95970421458463,cabo san lucas,mx,1601703895.0,28.33,65.0,0.0,0.45
213,11.255551659042197,104.31139997517244,kampot,kh,1601703895.0,29.0,83.0,40.0,4.1
216,32.445740485515415,-122.78279756851597,lompoc,us,1601703895.0,20.0,67.0,1.0,3.5
218,49.30574972398662,-72.41309050501972,albanel,ca,1601703896.0,4.0,86.0,75.0,4.1
221,5.2711797236305955,-38.00922422776196,itarema,br,1601703896.0,25.69,78.0,17.0,8.03
222,33.727729107697485,-98.34495593029267,wichita falls,us,1601703897.0,17.22,48.0,1.0,6.2
223,71.79694045148707,-121.25354125664029,norman wells,ca,1601703897.0,13.0,54.0,90.0,3.1
224,-30.300830635491728,-20.37288266620257,jamestown,sh,1601703898.0,6.67,100.0,90.0,3.1
225,19.363128113428985,150.87946570215797,katsuura,jp,1601703732.0,25.0,60.0,75.0,2.1
227,-19.563167318995042,179.1556470105064,isangel,vu,1601703899.0,25.0,83.0,75.0,2.6
228,2.441102434985183,150.692852037239,kavieng,pg,1601703899.0,29.0,70.0,33.0,4.56
235,6.222525267621876,174.42590364335234,butaritari,ki,1601703900.0,27.64,67.0,53.0,3.84
238,14.668214787818954,86.83148919953294,yarada,in,1601703901.0,32.0,62.0,75.0,1.0
242,-15.9065118784508,162.932483177866,luganville,vu,1601703902.0,26.0,78.0,75.0,3.6
247,26.522271459683168,-15.864246967228326,santa lucia,es,1601703902.0,23.0,60.0,75.0,7.7
248,-41.79759099477228,-76.46396194776425,ancud,cl,1601703903.0,2.78,72.0,0.0,2.6
253,60.30672745550561,23.014540130990156,salo,fi,1601703904.0,20.0,72.0,97.0,10.3
254,59.996284264935866,-75.54022629808534,iqaluit,ca,1601703905.0,-1.0,74.0,90.0,3.1
255,11.411699420414678,81.54388784819366,tirumullaivasal,in,1601703906.0,32.16,59.0,95.0,3.61
256,38.41576051337407,-26.93321702446127,praia da vitoria,pt,1601703906.0,20.56,88.0,75.0,7.78
260,-11.147342917199822,17.706106112240292,camacupa,ao,1601703907.0,20.39,76.0,64.0,0.6
262,-39.013730078157295,174.35893682471323,waitara,nz,1601703907.0,15.56,75.0,29.0,3.13
265,43.921211118157544,78.42493446904666,saryozek,kz,1601703908.0,16.53,30.0,0.0,2.18
269,-22.2017373382905,129.1044613927698,yulara,au,1601703909.0,38.0,5.0,0.0,8.2
271,73.07538608493155,98.06355808946608,khatanga,ru,1601703909.0,-2.45,96.0,94.0,4.93
274,60.14098376442294,-146.9059987875494,palmer,us,1601703910.0,6.67,100.0,1.0,0.91
279,77.13551551165531,29.682100019532783,berlevag,no,1601703910.0,8.71,85.0,81.0,7.02
281,-30.545337910962758,39.930541780024896,beloha,mg,1601703911.0,23.85,54.0,55.0,5.47
283,-35.885619100638294,-56.36904224112905,montevideo,uy,1601703911.0,8.33,62.0,20.0,7.2
285,4.8510502129834805,13.733910503746756,bertoua,cm,1601703912.0,20.17,97.0,100.0,1.3
286,-6.456924538237317,54.68954028335517,victoria,sc,1601703782.0,30.56,71.0,46.0,2.68
291,19.82018690842115,-9.868974809483461,atar,mr,1601703913.0,26.64,30.0,0.0,4.71
293,65.47262664331845,88.19082752617169,turukhansk,ru,1601703914.0,6.71,92.0,100.0,3.74
294,55.06100338607263,178.97392066595944,beringovskiy,ru,1601703915.0,4.12,92.0,100.0,10.78
297,-13.4463053708118,-44.04486194634799,santa maria da vitoria,br,1601703916.0,20.38,43.0,0.0,1.54
298,50.43576058323234,34.88680772670466,okhtyrka,ua,1601703917.0,16.34,45.0,46.0,6.59
299,-58.514758716283005,76.06852546518843,souillac,mu,1601703917.0,25.0,61.0,20.0,1.5
307,4.771853735092236,-54.869948166699174,brokopondo,sr,1601703918.0,25.16,85.0,79.0,3.43
309,68.14207426777736,49.80548083938285,naryan-mar,ru,1601703919.0,3.99,74.0,61.0,4.82
314,61.06931413475726,-170.0026872216143,lavrentiya,ru,1601703920.0,5.34,87.0,87.0,6.42
322,37.426310994889604,23.770905737801485,poros,gr,1601703920.0,23.33,83.0,0.0,1.34
329,47.896381119869545,127.0226016236503,hailun,cn,1601703920.0,10.92,75.0,97.0,6.74
330,-6.12554371346846,-71.98467053483722,ipixuna,br,1601703921.0,25.0,94.0,51.0,1.0
332,-23.786018466797216,117.2854779978195,roebourne,au,1601703922.0,32.99,25.0,0.0,8.44
338,-5.300058684203265,-84.383369660864,talara,pe,1601703751.0,17.66,84.0,54.0,6.76
339,14.310952624147305,-96.7651749160326,pochutla,mx,1601703923.0,23.89,88.0,93.0,1.97
342,-14.471723145606248,-74.04199583949735,puquio,pe,1601703923.0,10.94,47.0,86.0,0.88
346,72.32297674312636,-138.71050434007464,aklavik,ca,1601703924.0,7.0,81.0,75.0,4.6
347,5.817434014411006,-27.764304643036468,sao filipe,cv,1601703925.0,26.62,77.0,50.0,7.37
348,28.277211417275296,41.2403918865391,sakakah,sa,1601703650.0,25.0,25.0,0.0,3.1
350,34.005338526790254,-134.04062555710635,fortuna,us,1601703784.0,13.89,95.0,0.0,0.59
352,42.54811761096872,126.34856838117997,huinan,cn,1601703926.0,15.23,47.0,0.0,4.71
354,52.824499397814066,88.95648416341322,biskamzha,ru,1601703927.0,9.03,51.0,18.0,0.98
361,34.3985612538895,-125.65738146359153,pacific grove,us,1601703863.0,21.11,60.0,1.0,3.6
365,64.50658438691997,152.45882021592155,seymchan,ru,1601703929.0,5.96,63.0,83.0,1.07
369,2.825781474681122,103.76076396161187,mersing,my,1601703929.0,31.0,70.0,40.0,3.6
371,17.358918891897275,10.401641481283377,agadez,ne,1601703930.0,26.97,16.0,19.0,1.26
373,38.047373347327465,-85.3722391725053,shelbyville,us,1601703931.0,6.0,93.0,1.0,1.34
374,86.09445581614935,-130.7094685112362,tuktoyaktuk,ca,1601703931.0,6.0,93.0,90.0,5.7
383,-20.499407792619436,159.210882191125,poum,nc,1601703932.0,22.45,72.0,56.0,5.6
386,4.839183115095153,11.031843876911068,bafia,cm,1601703933.0,20.77,98.0,100.0,0.75
387,-37.389751201601484,81.52463376661848,bambous virieux,mu,1601703933.0,25.0,61.0,20.0,1.5
392,19.662671220242885,3.3303238376634,kidal,ml,1601703934.0,28.23,49.0,89.0,4.45
393,-28.79859341103426,112.68686907027654,geraldton,au,1601703935.0,18.0,42.0,40.0,10.3
394,68.00487444597883,-147.0426116225075,fairbanks,us,1601703636.0,15.0,54.0,1.0,3.6
397,8.835590481583381,-8.578295957140682,beyla,gn,1601703936.0,18.76,97.0,97.0,1.28
398,50.986168938994695,9.496211039512758,homberg,de,1601703936.0,14.0,82.0,90.0,1.0
403,61.907698729806185,-30.70587958436755,olafsvik,is,1601703937.0,4.52,75.0,60.0,6.08
406,-58.67797996475002,-19.937675706207813,cidreira,br,1601703938.0,15.02,82.0,100.0,7.36
407,24.710191948655407,12.533056045117291,marzuq,ly,1601703938.0,27.11,16.0,0.0,6.27
410,29.97376374158972,121.90869114233146,zhenhai,cn,1601703939.0,31.0,55.0,20.0,3.0
411,39.804850460510295,-18.030260710330026,camacha,pt,1601703940.0,20.0,88.0,75.0,6.2
413,1.3475000274748368,-31.393709888537728,touros,br,1601703652.0,22.0,94.0,40.0,1.5
417,26.555097039058708,70.07557950353089,jaisalmer,in,1601703941.0,35.5,23.0,0.0,6.01
418,65.43083725072952,174.9631937484586,anadyr,ru,1601703942.0,4.0,72.0,99.0,3.0
419,43.49302292568578,1.9434341116480596,castelnaudary,fr,1601703942.0,8.0,93.0,75.0,1.5
424,56.88255793038394,-57.744724435189,saint-augustin,ca,1601703943.0,10.84,93.0,84.0,3.69
426,30.558518639258835,-98.94016531000922,fredericksburg,us,1601703943.0,9.44,100.0,1.0,2.27
428,38.03570721890992,-8.113598259177905,ferreira do alentejo,pt,1601703944.0,9.0,93.0,20.0,4.1
429,62.93873219558125,-12.761789278734796,hofn,is,1601703944.0,8.63,87.0,100.0,5.64
433,33.46672705144864,126.84531149082426,fukue,jp,1601703945.0,24.0,83.0,75.0,4.1
434,0.8639558753033469,47.31605611276768,mogadishu,so,1601703946.0,27.0,69.0,40.0,5.1
437,-39.334839519478386,39.63246797807517,margate,za,1601703946.0,15.56,99.0,100.0,3.45
442,49.88290300134244,-27.345808285579636,lagoa,pt,1601703947.0,20.37,81.0,98.0,8.41
444,-37.64134570162352,-100.35382966647636,lebu,cl,1601703948.0,7.02,84.0,82.0,3.12
447,-12.325185159605383,100.23975345609443,labuhan,id,1601703948.0,32.31,49.0,77.0,4.79
453,-6.838154375100274,159.50432403106174,buala,sb,1601703949.0,28.75,65.0,10.0,3.26
454,60.14117548271844,-117.3623119301091,high level,ca,1601703950.0,6.0,87.0,1.0,1.65
456,65.20668599695603,-148.85589100059872,college,us,1601703950.0,15.0,43.0,75.0,1.5
458,4.697175323867356,66.25750443963827,mahibadhoo,mv,1601703951.0,28.3,72.0,96.0,5.6
459,55.412227062368345,-91.295413368088,sioux lookout,ca,1601703951.0,2.0,74.0,90.0,1.5
461,54.097284941463926,-13.613052467996908,dingle,ie,1601703952.0,30.59,74.0,57.0,2.71
462,-15.469295535576293,60.591203608639574,grand gaube,mu,1601703953.0,25.0,66.0,0.0,1.34
463,-71.5976006274619,179.96277922834065,kaitangata,nz,1601703953.0,17.22,54.0,93.0,3.13
465,-44.7325528248045,-69.95681073633497,coihaique,cl,1601703954.0,-2.0,63.0,0.0,2.6
467,-12.71699448791233,148.72777806554143,samarai,pg,1601703955.0,25.73,87.0,73.0,7.75
469,-35.02895461700764,22.227188751531088,george,za,1601703683.0,13.0,100.0,90.0,9.8
470,79.15900221858564,33.0008289298153,vardo,no,1601703955.0,8.7,87.0,95.0,6.31
471,44.73524712449597,108.86570709473563,darhan,mn,1601703956.0,4.33,58.0,76.0,4.86
472,-24.93637971866444,-29.84904866592109,vila velha,br,1601703956.0,25.0,83.0,0.0,5.1
473,5.704713631563806,66.15768517249265,ugoofaaru,mv,1601703957.0,28.14,72.0,93.0,5.8
474,35.783043958732264,-90.4970952765063,jonesboro,us,1601703708.0,10.56,81.0,1.0,1.89
475,24.48070899592338,129.8272010168712,nishihara,jp,1601703958.0,31.0,45.0,20.0,6.7
477,0.8762295910028683,104.47412656766755,kijang,id,1601703959.0,26.0,44.0,40.0,2.1
481,82.8499596511191,87.46477918075215,dikson,ru,1601703959.0,1.41,88.0,99.0,9.94
482,70.25582629224121,-55.250267144955046,kangaatsiaq,gl,1601703960.0,1.32,85.0,100.0,6.0
484,55.48002758840883,84.88449556340453,yurga,ru,1601703961.0,9.51,74.0,84.0,6.12
485,55.310745859578304,39.079827532355864,krasnyy tkach,ru,1601703961.0,8.0,87.0,100.0,2.0
486,49.787818143302644,-66.53144736524581,port-cartier,ca,1601703962.0,7.22,100.0,90.0,2.16
487,-1.4046804799439343,108.12311904745934,manggar,id,1601703962.0,29.92,67.0,99.0,6.11
488,38.496376359579045,44.91576531443076,khoy,ir,1601703962.0,16.0,67.0,0.0,1.0
490,-27.585509781855748,-96.87982485571847,pisco,pe,1601703888.0,17.0,82.0,42.0,4.6
492,0.4467841536077941,158.70610249777616,kieta,pg,1601703963.0,28.06,75.0,45.0,2.99
493,9.299213272347089,23.95262023606159,birao,cf,1601703964.0,24.63,83.0,100.0,0.46
494,64.3719837073483,128.1755232712233,sangar,ru,1601703965.0,3.27,69.0,5.0,1.86
499,-20.036989156041045,5.2245448794399465,namibe,ao,1601703965.0,18.15,72.0,99.0,1.49
500,38.31257828896733,42.381555728488166,tatvan,tr,1601703966.0,14.0,50.0,0.0,0.5
503,12.80961697584678,-60.10194792224647,bridgetown,bb,1601703966.0,24.0,94.0,40.0,9.8
504,-16.27838910394769,-26.120939138832284,maragogi,br,1601703839.0,23.57,82.0,46.0,4.27
505,42.65170900669909,51.95607132446261,kuryk,kz,1601703967.0,18.29,28.0,100.0,5.89
506,62.897605099186706,49.074240156697726,koslan,ru,1601703968.0,5.57,66.0,99.0,2.23
508,28.988675124235456,9.972576414947554,nalut,ly,1601703968.0,27.17,16.0,45.0,7.9
514,-39.24657684995567,-65.4916581380042,general roca,ar,1601703969.0,5.0,56.0,98.0,6.7
518,-38.374825738909806,-63.30093277676585,bahia blanca,ar,1601703969.0,3.79,74.0,61.0,2.35
525,12.821246089957853,10.740295228948384,nguru,ng,1601703970.0,26.31,61.0,24.0,3.63
527,30.197033861122335,114.54829113110532,zhifang,cn,1601703971.0,17.0,93.0,90.0,3.0
531,36.84352996322764,81.20341621658821,shache,cn,1601703971.0,20.39,24.0,64.0,4.95
534,-13.250710129033862,51.60987439951589,sambava,mg,1601703972.0,25.86,63.0,87.0,3.48
537,78.7607080416143,-43.769324545893284,ilulissat,gl,1601703973.0,1.0,74.0,90.0,6.7
538,-35.81750168606017,159.73576673248,port macquarie,au,1601703973.0,25.0,53.0,0.0,8.2
540,66.98801668227517,-66.18001397677396,pangnirtung,ca,1601703974.0,-3.7,85.0,14.0,1.42
542,-1.460877556454733,136.07574360308985,biak,id,1601703974.0,28.25,66.0,96.0,4.56
547,6.565629006877401,-108.43851625792865,lazaro cardenas,mx,1601703975.0,24.71,67.0,10.0,2.6
548,29.701767010191233,44.036655224740144,buraydah,sa,1601703976.0,25.0,36.0,0.0,2.1
553,16.570739160500906,-95.45280811824726,jalapa,mx,1601703728.0,13.05,83.0,13.0,2.56
556,-7.8844353428488745,5.602400014717489,mayumba,ga,1601703977.0,24.77,85.0,86.0,2.26
557,50.57865605595572,72.6010972976909,osakarovka,kz,1601703977.0,10.26,61.0,87.0,0.35
560,58.12495781406881,-25.976006590784266,grindavik,is,1601703978.0,4.0,74.0,23.0,6.7
561,52.47354604342269,-154.2573318249235,kodiak,us,1601703978.0,11.0,81.0,90.0,3.6
562,24.525173839426017,64.37788049468872,ormara,pk,1601703979.0,33.76,34.0,0.0,3.92
565,-2.7380417740197203,-61.642364504563886,anori,br,1601703979.0,23.47,91.0,29.0,0.58
566,-25.231297533908858,-153.55371905401034,avera,pf,1601703980.0,11.0,100.0,40.0,1.5
567,-6.256516605123082,157.50439367420194,buin,pg,1601703981.0,8.89,81.0,9.0,2.6
569,-37.71712417193311,-71.57486590694597,mulchen,cl,1601703981.0,5.39,66.0,77.0,1.68
570,-13.104041767692365,26.944162012968548,solwezi,zm,1601703982.0,22.96,23.0,0.0,3.63
571,64.42719776265142,155.6618288569486,dukat,ru,1601703983.0,1.37,82.0,7.0,1.34
572,47.55512332142135,57.63349776210657,shubarshi,kz,1601703983.0,16.33,32.0,0.0,1.8
573,30.260661078061673,56.62314435315008,bardsir,ir,1601703984.0,21.0,23.0,0.0,1.61
575,35.50941219806282,80.03638365441168,leh,in,1601703984.0,10.49,33.0,0.0,2.12
577,65.40337447521384,-90.47719864969675,thompson,ca,1601703911.0,-2.0,92.0,40.0,1.77
583,36.330730911698765,118.95021384166216,anqiu,cn,1601703986.0,21.44,37.0,98.0,0.73
588,21.746103459456734,74.99459518236094,sendhwa,in,1601703986.0,30.7,51.0,57.0,4.65
590,-25.797078976582526,34.800190706814874,xai-xai,mz,1601703987.0,21.26,91.0,99.0,0.7
594,38.86728466759462,-100.32346554544064,hays,us,1601703833.0,17.78,74.0,0.0,2.55
596,31.120719447248916,43.48522878659057,baghdad,iq,1601703848.0,29.0,39.0,0.0,0.5
598,-1.78143307146604,102.18858305063861,sungaipenuh,id,1601703988.0,24.88,75.0,95.0,1.09
601,32.48645633484662,22.21349552171438,darnah,ly,1601703989.0,28.24,39.0,4.0,12.38
603,-46.3349798197024,164.53160401995052,tuatapere,nz,1601703989.0,15.56,68.0,100.0,4.92
608,28.637290246023852,135.9779999476773,muroto,jp,1601703990.0,26.0,69.0,75.0,4.6
613,10.855160745362298,85.12106066196287,trincomalee,lk,1601703991.0,32.11,57.0,52.0,7.51
615,56.46084480162739,118.18473025851438,chara,ru,1601703991.0,2.92,73.0,92.0,2.22
619,57.05499776489643,160.71117497175356,klyuchi,ru,1601703992.0,10.98,46.0,0.0,2.12
620,38.8554198491025,48.92442646057586,haftoni,az,1601703993.0,20.0,100.0,40.0,3.1
624,45.44657867101574,-8.168233799911349,naron,es,1601703993.0,13.0,66.0,40.0,4.1
625,-3.760974752396791,-60.64117861730182,manacapuru,br,1601703994.0,25.0,94.0,20.0,0.98
636,8.869111437979754,84.4751781597621,batticaloa,lk,1601703995.0,31.31,56.0,98.0,0.94
637,-38.88301516653142,178.50040615071595,gisborne,nz,1601703775.0,18.89,49.0,11.0,0.89
638,19.485655736773168,-48.41091660169553,bathsheba,bb,1601703996.0,24.0,94.0,40.0,9.8
639,-45.83319605991464,170.7926464687473,waitati,nz,1601703996.0,16.47,56.0,94.0,2.9
641,-4.365369206150845,-3.6843127686248636,axim,gh,1601703997.0,24.51,88.0,87.0,1.98
642,-17.057958827272657,68.77039597860858,quatre cocos,mu,1601703998.0,25.0,61.0,20.0,1.5
643,72.40829475178595,164.54659337602442,bilibino,ru,1601703998.0,-3.5,87.0,49.0,0.84
645,-33.50448211582423,144.799254096148,griffith,au,1601703762.0,6.0,75.0,75.0,1.5
647,73.352812898618,125.40888750756716,tiksi,ru,1601704000.0,-2.78,94.0,5.0,8.49
651,-8.30077936016228,41.50571117355565,kilindoni,tz,1601704000.0,26.35,69.0,64.0,2.57
652,74.8409928870733,-0.07914521636357108,roald,no,1601704000.0,15.0,58.0,0.0,5.7
656,60.48085013778777,16.87195529094285,sandviken,se,1601704001.0,11.11,91.0,49.0,0.89
661,-22.044235553213923,119.19730484806723,port hedland,au,1601704001.0,38.0,14.0,36.0,11.8
662,41.414345786006294,120.13679162457066,chaoyang,cn,1601704002.0,21.03,23.0,0.0,6.49
663,-27.17773207342934,30.74850046825898,piet retief,za,1601704002.0,11.79,90.0,100.0,1.53
664,9.410767225448723,-53.1079345858025,mana,gf,1601704003.0,25.52,89.0,49.0,4.57
671,62.2935230176476,162.5984297214797,ossora,ru,1601704003.0,6.82,60.0,0.0,6.24
672,56.76695069446242,153.05883001995545,ola,ru,1601704004.0,8.96,69.0,59.0,2.01
676,22.357001473747204,17.323876684936664,faya,td,1601704005.0,20.0,21.0,0.0,4.1
680,36.680580634638446,135.51789089329174,mikuni,jp,1601704005.0,24.0,69.0,75.0,5.7
681,15.072859635639716,16.873575516397295,moussoro,td,1601704006.0,29.69,46.0,81.0,3.34
683,30.451819540828495,118.40037706600185,xuanzhou,cn,1601703836.0,20.27,94.0,100.0,3.9
687,-16.314051756219996,-93.13471831504512,san cristobal,ec,1601704007.0,18.03,85.0,84.0,1.2
692,21.217100944512737,94.7379012195268,chauk,mm,1601704007.0,31.53,64.0,55.0,3.45
707,32.43721479689246,48.27379713633053,dezful,ir,1601704007.0,35.57,13.0,0.0,0.94
709,46.4758894895044,40.16441047889788,krylovskaya,ru,1601704008.0,17.1,57.0,28.0,5.57
712,3.2540352793476615,68.92611144861439,kudahuvadhoo,mv,1601704009.0,27.79,75.0,100.0,5.2
714,49.750025671345725,-118.15128476836477,nakusp,ca,1601704009.0,14.66,57.0,1.0,0.71
715,45.15172416057948,92.95961516981652,hami,cn,1601704010.0,18.02,23.0,3.0,0.69
720,-11.552670533608762,87.38272679412489,padang,id,1601704010.0,26.28,71.0,100.0,2.7
722,-31.368421846988305,-67.39369292159964,san juan,ar,1601704011.0,10.33,54.0,36.0,8.6
724,64.32528784808858,78.39993914589604,tarko-sale,ru,1601704012.0,1.67,92.0,100.0,11.8
726,43.02304451393209,54.05785463900534,zhanaozen,kz,1601704012.0,15.68,32.0,100.0,6.3
727,3.18505450057917,149.65670641333685,lorengau,pg,1601704013.0,28.96,73.0,57.0,4.26
730,-7.2774043473786065,-75.04992199662986,contamana,pe,1601704014.0,23.05,74.0,1.0,0.47
731,55.16784464723011,-134.54873888971676,sitka,us,1601704014.0,12.0,93.0,90.0,2.1
734,35.58801011893988,98.94226196109497,xining,cn,1601704015.0,13.82,37.0,33.0,3.38
745,54.667658783567134,30.572395713336505,orsha,by,1601704016.0,12.0,87.0,90.0,4.0
746,5.903445873442294,-46.67736249971813,saint-georges,gf,1601704016.0,26.0,88.0,40.0,2.6
750,-4.508615516657343,127.95367098890432,ambon,id,1601704017.0,26.0,88.0,75.0,2.1
757,6.732365624141323,-20.85353772467863,bubaque,gw,1601704018.0,27.16,81.0,55.0,6.47
759,19.462952351547898,113.64321276046684,zhuhai,cn,1601703875.0,34.44,70.0,20.0,3.6
763,10.318188262203023,-110.18554307329052,san patricio,mx,1601704018.0,25.12,89.0,6.0,1.62
764,-34.63273479256264,171.6476920322529,ahipara,nz,1601704019.0,14.64,69.0,30.0,1.04
767,-24.12808947327136,-49.63309122647911,jaguariaiva,br,1601704019.0,25.0,55.0,44.0,2.33
770,16.05143129854737,52.706533192041604,salalah,om,1601704020.0,27.0,69.0,20.0,1.0
775,-18.32861369469049,27.931379486312608,sinazongwe,zm,1601704020.0,27.64,45.0,1.0,6.28
787,-3.278059786619721,-9.023537687071382,georgetown,sh,1601704021.0,29.0,70.0,20.0,1.5
794,60.736486870716135,-21.36543427583277,vestmannaeyjar,is,1601704021.0,5.01,68.0,92.0,7.38
796,26.144014877728736,-45.150372179970105,codrington,ag,1601704021.0,14.92,90.0,26.0,4.22
797,-14.376040105770457,142.90674653774994,mareeba,au,1601704022.0,27.22,46.0,97.0,4.92
798,30.356001723122432,74.5319494838626,muktsar,in,1601704022.0,38.34,10.0,0.0,0.49
799,12.530424810436358,-81.3827507671215,san andres,co,1601704023.0,26.0,88.0,40.0,2.1
801,49.38679870379099,-115.32549855343115,fernie,ca,1601704023.0,11.0,71.0,5.0,2.1
804,66.5734896945007,-53.32986892021667,sisimiut,gl,1601704024.0,0.02,93.0,100.0,2.15
805,-7.403604106886533,27.969478142967716,manono,cd,1601704024.0,25.75,69.0,53.0,2.44
809,47.342478487695956,117.67712789365794,manzhouli,cn,1601704024.0,3.48,92.0,100.0,2.39
811,15.87828108488847,-131.07135033955146,guerrero negro,mx,1601704025.0,24.62,60.0,0.0,4.35
812,48.0284955567335,90.83237947565186,ulaangom,mn,1601704025.0,7.14,50.0,0.0,3.44
813,62.28278034597295,33.2372410531581,porosozero,ru,1601704026.0,7.3,93.0,29.0,2.98
820,-20.49052997332501,166.8903286051882,fayaoue,nc,1601704026.0,21.74,76.0,1.0,12.01
822,59.814194201403495,46.651062278399905,podosinovets,ru,1601704027.0,8.78,84.0,1.0,1.95
829,56.413857734311904,50.62812608506866,malmyzh,ru,1601704027.0,12.67,74.0,46.0,3.68
836,61.90255909239485,66.52952735646389,oktyabrskoye,ru,1601704028.0,15.56,87.0,75.0,1.0
843,-7.116973220457737,48.160617043707845,ambilobe,mg,1601704028.0,30.87,45.0,76.0,1.83
848,32.18876221142074,-77.66044409916046,north myrtle beach,us,1601703757.0,16.11,72.0,40.0,3.1
849,47.39255052105304,95.70854298669309,erzin,ru,1601704029.0,22.22,75.0,12.0,0.89
856,-35.75976253377254,-39.38730481997342,laguna,br,1601704029.0,22.78,64.0,1.0,1.39
858,-49.55267850714795,-58.60260978291538,rawson,ar,1601704029.0,3.02,75.0,0.0,4.5
859,19.296104598119683,27.966227668014483,marawi,sd,1601704030.0,30.0,74.0,4.0,3.58
863,19.39173842082316,81.07249550112192,gidam,in,1601704031.0,32.13,48.0,74.0,2.17
865,25.36519752979386,-98.8978628022668,china,mx,1601704031.0,23.16,75.0,0.0,5.73
868,2.0102360776549375,101.26739011164307,dumai,id,1601704031.0,24.27,89.0,100.0,1.29
874,63.25144489561754,25.995601646475876,aanekoski,fi,1601704032.0,2.0,100.0,1.0,1.5
875,45.47938866683327,-1.6487374693468269,royan,fr,1601704032.0,11.67,100.0,83.0,7.2
876,41.8631351996286,-81.9001776407749,bay village,us,1601704033.0,9.44,81.0,75.0,4.09
877,43.590887861569286,21.005318035254362,trstenik,rs,1601704033.0,12.0,100.0,100.0,0.5
880,-26.963583918084908,-59.60500752210646,resistencia,ar,1601704034.0,14.0,93.0,90.0,7.7
881,40.7997671367676,76.81854822642481,at-bashi,kg,1601704034.0,9.2,48.0,94.0,0.27
886,18.727355585889413,11.730534611705082,bilma,ne,1601704034.0,31.56,27.0,0.0,1.87
888,43.77661304548192,97.3119045728115,yumen,cn,1601704035.0,14.39,27.0,0.0,8.63
896,-18.789593535232527,42.62429788265976,morondava,mg,1601704035.0,27.49,56.0,65.0,1.22
901,16.70068794917742,-131.87753381314207,san quintin,mx,1601704036.0,22.54,58.0,0.0,1.23
904,61.32746909641139,-53.83517869861032,nuuk,gl,1601704036.0,1.0,69.0,100.0,1.73
915,-26.055162269397684,-83.474720669911,coquimbo,cl,1601704037.0,9.0,87.0,1.0,2.6
920,-13.417226916026593,172.097108602175,sola,vu,1601704037.0,25.95,84.0,71.0,10.62
922,67.78231424697748,66.25198855253683,kharp,ru,1601704038.0,2.58,77.0,51.0,4.79
923,49.7696098035062,-119.59901645212864,peachland,ca,1601703912.0,13.89,87.0,1.0,1.5
927,-42.37868004412436,141.83693421703566,portland,au,1601703797.0,19.0,82.0,1.0,0.96
930,-2.246197137012956,131.05123661700412,sorong,id,1601704039.0,28.19,69.0,100.0,1.44
933,-18.000573576034398,139.7006668772762,mount isa,au,1601704039.0,35.0,11.0,0.0,7.7
937,13.186879744197327,15.329028404582061,massakory,td,1601704040.0,28.03,59.0,91.0,3.51
938,46.99470722987044,-84.03502606247758,sault sainte marie,ca,1601703911.0,6.0,70.0,90.0,0.57
942,12.39084258966244,72.62053919481289,kavaratti,in,1601704041.0,29.0,74.0,20.0,2.1
943,-17.752462887338595,21.953436315697104,shakawe,bw,1601704041.0,26.22,33.0,35.0,1.03
951,64.55668146459539,47.16275368910598,blagoyevo,ru,1601704042.0,5.28,67.0,92.0,2.07
952,-30.419169420013482,142.75298593871503,broken hill,au,1601704042.0,33.0,14.0,28.0,6.7
954,33.63137066651308,-10.41435347099295,asfi,ma,1601704043.0,19.5,86.0,71.0,4.7
962,24.096185769191493,73.95851116684395,salumbar,in,1601704043.0,31.0,52.0,20.0,0.27
964,6.567563365648141,92.61849052823197,sabang,id,1601704044.0,28.29,74.0,100.0,9.42
970,46.66748070809126,-66.13140753611448,fredericton,ca,1601703968.0,10.0,93.0,40.0,3.1
973,14.630416498219475,64.45811227287834,mangrol,in,1601704045.0,29.61,66.0,3.0,3.58
974,61.94831209813316,85.66839358935647,belyy yar,ru,1601704045.0,5.0,65.0,86.0,2.0
983,37.577315583996125,31.602239497506133,beysehir,tr,1601704046.0,17.77,36.0,0.0,1.23
987,51.868062201401074,-78.10764779902101,matagami,ca,1601704046.0,1.0,95.0,90.0,2.6
995,49.16295936013495,104.77914611689323,erdenet,mn,1601704047.0,0.6,75.0,60.0,5.34
996,2.2817282136213777,25.92393227260291,buta,cd,1601704047.0,22.43,93.0,100.0,0.51
998,7.530579113725224,-55.087792576372834,nieuw amsterdam,sr,1601704047.0,26.11,90.0,56.0,1.79
1001,72.46631164999002,23.06531818348961,hammerfest,no,1601704048.0,11.0,71.0,65.0,8.7
1002,32.48426825359125,121.36071191554385,juegang,cn,1601704048.0,21.47,79.0,99.0,2.56
1007,10.722034993438328,-89.8014868485148,la libertad,sv,1601704049.0,19.67,87.0,45.0,4.78
1009,-8.752731501128793,42.16653650148609,madimba,tz,1601704049.0,25.0,88.0,20.0,2.51
1013,50.95285922019511,82.13578833825943,staroaleyskoye,ru,1601704050.0,9.31,58.0,0.0,0.89
1023,42.13234813231881,104.42624109449889,hovd,mn,1601704050.0,4.6,61.0,0.0,1.82
1026,-10.588892478619343,-66.66142096143845,placido de castro,br,1601704051.0,24.82,70.0,15.0,0.61
1029,70.29406707074781,80.05364737916875,tazovskiy,ru,1601704051.0,1.68,85.0,100.0,9.75
1030,32.61859706217294,-130.4310754681178,half moon bay,us,1601703812.0,20.0,82.0,1.0,1.41
1037,43.523142061198314,-112.18002522810478,idaho falls,us,1601704052.0,9.0,66.0,1.0,1.23
1039,73.36205723071171,91.14563560360648,talnakh,ru,1601704052.0,-2.0,92.0,40.0,11.0
1040,-40.01746736281096,144.30441272751614,colac,au,1601703957.0,23.89,50.0,0.0,6.19
1042,12.457775432837309,19.38249430237383,mongo,td,1601704053.0,26.45,69.0,99.0,1.83
1050,-4.460033389964337,166.73655563928833,lata,sb,1601704054.0,8.33,90.0,20.0,0.45
1052,-34.25009043309339,24.624214472340043,kruisfontein,za,1601704054.0,15.0,93.0,100.0,3.13
1059,40.24019887248366,148.05128628219325,nemuro,jp,1601704055.0,15.0,93.0,75.0,4.1
1063,20.124201385846305,1.2601333066230325,tessalit,ml,1601704055.0,28.09,34.0,78.0,5.74
1067,-25.713828483159702,-64.36446679925301,salta,ar,1601704056.0,18.0,42.0,1.0,3.1
1068,51.21668334095537,136.37319713380447,gorin,ru,1601704057.0,8.22,95.0,100.0,1.71
1069,25.089074615925895,34.95290471148934,safaga,eg,1601704057.0,28.0,42.0,0.0,3.6
1075,5.46247847052669,80.78759458158885,matara,lk,1601704058.0,29.96,62.0,99.0,6.53
1076,9.165525483281158,0.8284880659203111,bassar,tg,1601704058.0,19.97,100.0,90.0,0.66
1080,42.400168884516376,15.580419040950318,apricena,it,1601704058.0,23.89,88.0,75.0,4.6
1083,57.09893838608673,106.52233237626996,markova,ru,1601704059.0,6.0,93.0,93.0,2.02
1086,39.20376022887646,-0.11601990354270697,cullera,es,1601704059.0,13.89,56.0,0.0,0.45
1089,14.296151508161941,120.10757590008996,saysain,ph,1601704059.0,31.0,70.0,20.0,4.6
1100,13.952872515338754,70.29194517462238,mormugao,in,1601704060.0,28.0,78.0,75.0,2.6
1101,11.476151370013142,-163.68641124874398,makakilo city,us,1601704060.0,28.0,74.0,1.0,1.5
1114,-14.8192893655702,177.64098767061944,asau,tv,1601704061.0,12.78,81.0,76.0,1.19
1115,29.895030392144093,118.00399639298399,wucheng,cn,1601704062.0,26.23,74.0,80.0,1.27
1118,29.854657299978285,137.66998936710962,shingu,jp,1601704062.0,25.0,69.0,75.0,2.1
1120,11.42866279458201,-17.93999168644382,oussouye,sn,1601704063.0,25.29,88.0,21.0,2.98
1124,62.54224907349689,48.81567449852585,yarensk,ru,1601704063.0,6.59,63.0,70.0,2.55
1125,21.866871374742303,72.52445118982044,ghogha,in,1601704064.0,36.0,50.0,41.0,1.0
1126,-15.562510862642597,139.05720168085116,alyangula,au,1601704064.0,31.0,43.0,85.0,5.7
1131,-40.92928671979056,142.77810795009628,warrnambool,au,1601704064.0,23.89,62.0,46.0,6.81
1137,13.578027362654268,-38.593256977750144,porto novo,cv,1601704065.0,26.0,88.0,40.0,5.1
1139,18.883213436646244,82.56955855088273,jaypur,in,1601704066.0,27.51,71.0,93.0,3.77
1144,24.08448411385112,40.317777937960585,mecca,sa,1601704066.0,32.19,41.0,0.0,1.65
1145,18.7817426653683,-84.26279791079725,savannah bight,hn,1601704067.0,29.05,75.0,99.0,7.41
1148,38.32062172203979,-3.3400485451679174,la carolina,es,1601704067.0,11.67,70.0,0.0,2.04
1151,14.280719710607201,109.12963432131573,qui nhon,vn,1601704067.0,29.92,72.0,97.0,3.25
1153,8.728922468257778,-92.45837473001629,san jose,gt,1601703812.0,23.33,68.0,90.0,3.1
1155,-25.07278253189638,53.59272881218902,saint-pierre,re,1601704068.0,26.0,69.0,10.0,4.6
1162,50.92517567463983,144.53737527865553,katangli,ru,1601704069.0,10.62,73.0,100.0,9.5
1163,-5.560435074880758,140.4954519436734,kiunga,pg,1601704070.0,30.56,71.0,85.0,1.38
1164,23.56026361478027,132.8499034439294,gushikawa,jp,1601704070.0,30.0,48.0,1.0,6.2
1169,4.428997684249268,120.55949516441916,lookan,ph,1601704071.0,29.85,65.0,3.0,1.03
1172,5.573310245396527,-73.9179385796968,maripi,co,1601704071.0,17.04,82.0,98.0,2.03
1174,52.16825780452908,-0.5783848733775301,rushden,gb,1601704071.0,13.89,98.0,100.0,3.58
1176,-6.2308816277125345,27.189260203490107,kabalo,cd,1601704072.0,25.75,72.0,71.0,1.43
1178,-14.271981213548784,17.63339893245464,menongue,ao,1601704072.0,21.07,63.0,87.0,1.61
1180,15.715945940257797,3.5387124580017257,filingue,ne,1601704073.0,29.12,56.0,9.0,1.79
1190,25.863862975795314,99.26706740596455,dali,cn,1601704073.0,24.35,58.0,28.0,2.48
1192,56.65665927256293,100.35959603703031,chunskiy,ru,1601704073.0,6.32,58.0,0.0,2.2
1197,65.1320991218607,124.0215923606246,zhigansk,ru,1601704074.0,-0.12,96.0,100.0,9.73
1204,30.019786718026296,78.49767299466475,devaprayag,in,1601704074.0,27.0,69.0,0.0,1.5
1207,60.41069472228253,-140.2358030245711,haines junction,ca,1601704075.0,6.56,76.0,62.0,3.5
1213,12.579737636305936,89.96674485041342,port blair,in,1601704075.0,26.51,83.0,100.0,6.15
1214,-4.246772718884031,116.71877390405803,martapura,id,1601704076.0,35.0,41.0,40.0,5.7
1218,31.734162489398216,26.569884507098834,marsa matruh,eg,1601704076.0,20.0,77.0,0.0,3.14
1219,-0.9194836105239972,-56.97702718261313,terra santa,br,1601704077.0,26.27,59.0,35.0,0.39
1224,31.857236766630635,-87.869283441783,meridian,us,1601703912.0,16.0,76.0,31.0,1.67
1229,15.745909663933247,-84.27386595484592,barra patuca,hn,1601704077.0,24.54,87.0,100.0,1.85
1233,7.031322923639351,70.10256426165839,kulhudhuffushi,mv,1601704078.0,27.81,75.0,83.0,6.09
1236,-27.07338225797757,-66.13258386785654,tucuman,ar,1601703923.0,18.0,48.0,42.0,4.1
1237,59.001681759282405,-134.97871392418847,juneau,us,1601703900.0,13.0,87.0,90.0,2.6
1243,32.23293765389819,115.34804328405932,huangchuan,cn,1601704079.0,15.34,95.0,100.0,4.74
1246,49.55815220399444,-75.41288838235131,chapais,ca,1601704079.0,2.0,80.0,90.0,2.1
1248,30.77572742254685,68.81834502445201,loralai,pk,1601704080.0,25.59,16.0,0.0,0.92
1249,-7.822809779732367,-58.94757572468997,jacareacanga,br,1601704080.0,24.8,75.0,92.0,1.17
1252,14.108614186062269,-77.9531681236415,bull savanna,jm,1601704081.0,25.3,85.0,100.0,5.95
1253,69.02433640011046,68.70815710599834,aksarka,ru,1601704081.0,3.22,72.0,28.0,9.62
1264,37.881947898557755,-84.15317582215769,winchester,us,1601704082.0,13.33,93.0,100.0,9.8
1269,40.853263205210794,-125.7714474058127,eureka,us,1601703918.0,13.89,95.0,0.0,0.45
1270,24.532689059177684,-106.90489722440999,cosala,mx,1601704082.0,27.22,90.0,0.0,1.79
1271,36.39409242421961,-150.06706102514212,kahului,us,1601704083.0,28.0,65.0,75.0,2.1
1273,41.523390978441995,73.15146949975372,toktogul,kg,1601703854.0,16.1,33.0,68.0,1.07
1275,2.0609852566955595,83.30214673032174,hambantota,lk,1601704084.0,32.0,62.0,40.0,9.3
1277,23.674655485580914,89.67431925825679,faridpur,bd,1601704084.0,31.0,70.0,75.0,1.5
1283,18.54713086110779,-9.639425470299301,nioro,ml,1601704085.0,23.3,96.0,2.0,2.17
1288,74.18716478326584,-10.332589104185132,husavik,is,1601704085.0,0.0,93.0,90.0,2.1
1292,53.130274395176,68.78116215735841,krasnoarmeysk,kz,1601704086.0,13.33,51.0,98.0,0.45
1303,5.205223423123385,125.94907411177672,sarangani,ph,1601704086.0,29.67,69.0,43.0,4.71
1304,52.23605137626495,-1.5969644581115574,warwick,gb,1601704086.0,11.67,93.0,1.0,3.1
1308,61.88829736660031,-0.02242961604039806,brae,gb,1601703974.0,13.0,93.0,75.0,8.7
1311,4.093913850626592,-66.1586446324816,inirida,co,1601704087.0,22.59,97.0,58.0,1.06
1312,-4.1865338321400145,-68.71742583966639,sao paulo de olivenca,br,1601704088.0,23.69,88.0,68.0,0.55
1316,47.89091925990766,145.33172765910575,novikovo,ru,1601704088.0,16.15,41.0,100.0,5.74
1319,-37.8306081853712,138.1107907732424,victor harbor,au,1601704089.0,27.78,37.0,78.0,1.79
1323,-40.747342522242505,134.9101201404158,port lincoln,au,1601704089.0,18.27,77.0,53.0,7.2
1324,26.026637737123906,40.30193417947214,umm lajj,sa,1601704090.0,35.81,26.0,68.0,3.53
1326,15.39058813129077,-23.68704543631833,tarrafal,cv,1601704090.0,26.0,78.0,63.0,11.3
1328,22.107451401119008,89.57772274873832,sarankhola,bd,1601704091.0,31.95,68.0,44.0,3.44
1329,44.950654385363066,-131.5754552595318,port hardy,ca,1601704091.0,11.0,100.0,20.0,1.53
1330,-11.104235437572797,43.898653208537155,mitsamiouli,km,1601704092.0,25.94,78.0,80.0,2.52
1333,21.15007613740657,128.30347467534682,hirara,jp,1601704092.0,30.0,66.0,75.0,6.2
1337,28.722501299658234,21.5013330293165,jalu,ly,1601704093.0,28.23,33.0,0.0,5.88
1338,10.445757677726377,-43.87110087701262,cayenne,gf,1601704074.0,23.0,100.0,18.0,4.14
1339,41.91140263449742,-11.507531330473142,muros,es,1601704093.0,8.33,96.0,28.0,5.83
1344,1.965077382063214,-56.34101960471017,grand-santi,gf,1601704094.0,22.37,97.0,10.0,0.97
1346,18.318414516188056,-68.72821626270272,la romana,do,1601704094.0,28.0,74.0,40.0,4.1
1351,48.260967399599934,8.829723511320822,balingen,de,1601704094.0,11.11,94.0,94.0,2.66
1353,-4.460830189616431,35.488117402403674,nangwa,tz,1601704095.0,19.23,53.0,40.0,4.47
1354,39.171948371329904,7.205183721593045,carbonia,it,1601704095.0,18.0,82.0,40.0,7.2
1355,-32.794061860296914,151.6465365762403,raymond terrace,au,1601703831.0,30.0,42.0,0.0,6.2
1358,68.73987956241331,-9.110038490210343,vestmanna,fo,1601704096.0,10.0,93.0,99.0,9.8
1363,56.21549899472632,138.83525250244696,ayan,ru,1601704097.0,9.67,69.0,100.0,2.58
1366,46.09607291811511,47.52272527824377,ikryanoye,ru,1601704097.0,16.67,51.0,100.0,4.0
1369,-8.93724697540216,-33.76818045453368,tamandare,br,1601704098.0,23.78,82.0,71.0,4.16
1371,33.362393024200586,11.600795847088193,bin qirdan,tn,1601704098.0,31.33,21.0,85.0,8.02
1377,17.709160129486918,-101.8894533243799,ixtapa,mx,1601704099.0,26.0,83.0,5.0,1.5
1379,18.911329777286014,-91.34868465717419,isla aguada,mx,1601704099.0,26.34,85.0,100.0,8.96
1382,-12.329954758226052,29.14732941872319,ndola,zm,1601704100.0,25.21,32.0,34.0,6.23
1386,40.769496840536306,65.21747105470084,nurota,uz,1601704100.0,20.0,30.0,0.0,4.1
1387,-16.326624995942865,-48.320658905940576,luziania,br,1601703848.0,18.0,55.0,4.0,2.1
1391,-22.26229685478272,166.58488885533723,mont-dore,nc,1601704101.0,24.0,53.0,24.0,10.3
1392,38.115730789126445,60.492161690672475,kaka,tm,1601704101.0,21.17,22.0,3.0,2.14
1395,22.56435559389726,59.75567267198625,sur,om,1601704102.0,34.16,31.0,0.0,1.98
1400,-11.821339284435311,-60.83454605679292,pimenta bueno,br,1601703913.0,21.26,93.0,93.0,0.94
1401,23.939570187674406,72.69100848997368,kheralu,in,1601704103.0,32.71,48.0,0.0,3.17
1402,-0.11465215420129482,154.4313559812528,namatanai,pg,1601704104.0,28.58,72.0,100.0,4.19
1409,26.749062977546075,-15.280481424979627,aguimes,es,1601704104.0,23.0,60.0,75.0,7.7
1412,15.527840747292387,-86.72816126747293,coyoles,hn,1601704105.0,26.11,50.0,12.0,4.92
1422,4.608689229367954,115.47966801149687,limbang,my,1601704105.0,29.0,74.0,75.0,3.6
1424,65.48767788912158,76.91696700210451,novyy urengoy,ru,1601704106.0,1.27,88.0,100.0,11.98
1425,26.494463804293915,5.514466466389479,gat,ly,1601704107.0,24.44,70.0,0.0,1.75
1432,1.7707700466030474,-7.080564779025281,tabou,ci,1601704107.0,24.71,89.0,100.0,3.91
1435,29.157631779113416,120.29915756032034,wuning,cn,1601704108.0,30.15,49.0,1.0,0.44
1437,23.65745599865258,-109.25301625297148,todos santos,mx,1601704108.0,26.11,84.0,0.0,2.53
1441,-0.8632673633620414,111.5447197302978,pangkalanbuun,id,1601704108.0,32.66,53.0,84.0,2.89
1446,-27.409274856046707,179.55617779618996,russell,nz,1601703928.0,13.0,93.0,1.0,2.22
1449,-2.0466613056724015,113.42570939969312,sampit,id,1601704109.0,30.86,66.0,50.0,2.83
1458,-13.196840788963925,-43.32873971609925,bom jesus da lapa,br,1601704110.0,19.78,54.0,0.0,1.2
1459,-46.71260503499709,-66.2354992770437,comodoro rivadavia,ar,1601704111.0,1.0,47.0,0.0,2.6
1466,-23.159096743238933,167.97444489619926,vao,nc,1601704111.0,20.33,74.0,10.0,10.73
1467,-6.251343313766824,-44.4924044328159,mirador,br,1601704112.0,22.54,40.0,11.0,1.53
1468,82.09358457705059,-61.144597913661755,narsaq,gl,1601704112.0,3.0,86.0,98.0,1.76
1469,14.07316215239932,22.0333004835843,adre,td,1601704096.0,25.77,66.0,8.0,2.36
1479,1.2210254911685468,37.34690791960213,maralal,ke,1601704113.0,19.0,62.0,11.0,2.89
1480,56.58425565942167,-8.007207193354247,carndonagh,ie,1601704113.0,10.0,93.0,75.0,2.1
1482,-24.081959177663407,-42.91371843915445,marica,br,1601704114.0,26.0,78.0,0.0,1.5
1484,23.24030979515358,33.00152613169402,aswan,eg,1601704114.0,32.15,21.0,2.0,6.06
1485,35.102437128174145,-64.90949475463819,saint george,bm,1601703961.0,23.0,7.0,1.0,2.6
1492,35.861318983784884,-79.13545749075632,carrboro,us,1601704115.0,10.56,93.0,0.0,1.62
1494,55.723126411696086,41.08643424328312,zolotkovo,ru,1601704115.0,12.89,64.0,99.0,1.99
